{
	"locations": [
		{
			"_ID": 80,
			"_streetNumber": 203,
			"_street": "Wyckoff Ave",
			"_unit": "",
			"_city": "Ithaca",
			"_state": "NY",
			"_zipcode": 14850,
			"_lat": 42.455926,
			"_long": -76.484187,
			"_route": null
		},
		{
			"_ID": 80,
			"_streetNumber": 203,
			"_street": "Wyckoff Ave",
			"_unit": "",
			"_city": "Ithaca",
			"_state": "NY",
			"_zipcode": 14850,
			"_lat": 42.455926,
			"_long": -76.484187,
			"_route": null
		},
		{
			"_ID": 81,
			"_streetNumber": 209,
			"_street": "W State St",
			"_unit": "",
			"_city": "Ithaca",
			"_state": "NY",
			"_zipcode": 14850,
			"_lat": 42.439256,
			"_long": -76.499593,
			"_route": null
		},
		{
			"_ID": 82,
			"_streetNumber": 109,
			"_street": "Llenroc Ct",
			"_unit": "",
			"_city": "Ithaca",
			"_state": "NY",
			"_zipcode": 14850,
			"_lat": 42.446901,
			"_long": -76.491157,
			"_route": null
		},
		{
			"_ID": 83,
			"_streetNumber": 507,
			"_street": "E State St",
			"_unit": "",
			"_city": "Ithaca",
			"_state": "NY",
			"_zipcode": 14850,
			"_lat": 42.439697,
			"_long": -76.495078,
			"_route": null
		},
		{
			"_ID": 84,
			"_streetNumber": 313,
			"_street": "S Corn St",
			"_unit": "",
			"_city": "Ithaca",
			"_state": "NY",
			"_zipcode": 14850,
			"_lat": 42.438411,
			"_long": -76.506089,
			"_route": null
		},
		{
			"_ID": 85,
			"_streetNumber": 1006,
			"_street": "E State St",
			"_unit": "",
			"_city": "Ithaca",
			"_state": "NY",
			"_zipcode": 14850,
			"_lat": 42.439697,
			"_long": -76.495078,
			"_route": null
		},
		{
			"_ID": 86,
			"_streetNumber": 1,
			"_street": "Cliff Park Cir",
			"_unit": "",
			"_city": "Ithaca",
			"_state": "NY",
			"_zipcode": 14850,
			"_lat": 42.509688,
			"_long": -76.470811,
			"_route": null
		},
		{
			"_ID": 87,
			"_streetNumber": 107,
			"_street": "E State St",
			"_unit": "",
			"_city": "Ithaca",
			"_state": "NY",
			"_zipcode": 14850,
			"_lat": 42.439697,
			"_long": -76.495078,
			"_route": null
		},
		{
			"_ID": 88,
			"_streetNumber": 112,
			"_street": "Parker St",
			"_unit": "",
			"_city": "Ithaca",
			"_state": "NY",
			"_zipcode": 14850,
			"_lat": 42.453449,
			"_long": -76.473503,
			"_route": null
		},
		{
			"_ID": 89,
			"_streetNumber": 322,
			"_street": "S Geneva St",
			"_unit": "",
			"_city": "Ithaca",
			"_state": "NY",
			"_zipcode": 14850,
			"_lat": 42.436814,
			"_long": -76.500633,
			"_route": null
		},
		{
			"_ID": 90,
			"_streetNumber": 141,
			"_street": "Kite Hill Dr",
			"_unit": "",
			"_city": "Ithaca",
			"_state": "NY",
			"_zipcode": 14853,
			"_lat": 42.447744,
			"_long": -76.485247,
			"_route": null
		},
		{
			"_ID": 91,
			"_streetNumber": 501,
			"_street": "S Titus Ave",
			"_unit": "",
			"_city": "Ithaca",
			"_state": "NY",
			"_zipcode": 14850,
			"_lat": 42.433898,
			"_long": -76.503084,
			"_route": null
		},
		{
			"_ID": 92,
			"_streetNumber": 511,
			"_street": "Willow Ave",
			"_unit": "",
			"_city": "Ithaca",
			"_state": "NY",
			"_zipcode": 14850,
			"_lat": 42.451451,
			"_long": -76.505149,
			"_route": null
		},
		{
			"_ID": 93,
			"_streetNumber": 1021,
			"_street": "Hector St",
			"_unit": "",
			"_city": "Ithaca",
			"_state": "NY",
			"_zipcode": 14850,
			"_lat": 42.447663,
			"_long": -76.517874,
			"_route": null
		},
		{
			"_ID": 94,
			"_streetNumber": 225,
			"_street": "Fall Creek Dr",
			"_unit": "",
			"_city": "Ithaca",
			"_state": "NY",
			"_zipcode": 14850,
			"_lat": 42.452784,
			"_long": -76.486768,
			"_route": null
		},
		{
			"_ID": 95,
			"_streetNumber": 508,
			"_street": "W Seneca St",
			"_unit": "",
			"_city": "Ithaca",
			"_state": "NY",
			"_zipcode": 14850,
			"_lat": 42.440002,
			"_long": -76.507591,
			"_route": null
		},
		{
			"_ID": 96,
			"_streetNumber": 415,
			"_street": "E Seneca St",
			"_unit": "",
			"_city": "Ithaca",
			"_state": "NY",
			"_zipcode": 14850,
			"_lat": 42.440764,
			"_long": -76.496301,
			"_route": null
		},
		{
			"_ID": 97,
			"_streetNumber": 316,
			"_street": "W Seneca St",
			"_unit": "",
			"_city": "Ithaca",
			"_state": "NY",
			"_zipcode": 14850,
			"_lat": 42.440002,
			"_long": -76.507591,
			"_route": null
		},
		{
			"_ID": 98,
			"_streetNumber": 236,
			"_street": "Cherry St",
			"_unit": "",
			"_city": "Ithaca",
			"_state": "NY",
			"_zipcode": 14850,
			"_lat": 42.435387,
			"_long": -76.515872,
			"_route": null
		},
		{
			"_ID": 99,
			"_streetNumber": 426,
			"_street": "Hillview Pl",
			"_unit": "",
			"_city": "Ithaca",
			"_state": "NY",
			"_zipcode": 14850,
			"_lat": 42.434877,
			"_long": -76.49471,
			"_route": null
		},
		{
			"_ID": 100,
			"_streetNumber": 302,
			"_street": "Lake St",
			"_unit": "",
			"_city": "Ithaca",
			"_state": "NY",
			"_zipcode": 14850,
			"_lat": 42.450884,
			"_long": -76.493619,
			"_route": null
		},
		{
			"_ID": 101,
			"_streetNumber": 307,
			"_street": "College Ave",
			"_unit": "",
			"_city": "Ithaca",
			"_state": "NY",
			"_zipcode": 14850,
			"_lat": 42.440898,
			"_long": -76.485701,
			"_route": null
		},
		{
			"_ID": 102,
			"_streetNumber": 1108,
			"_street": "N Tioga St",
			"_unit": "",
			"_city": "Ithaca",
			"_state": "NY",
			"_zipcode": 14850,
			"_lat": 42.446147,
			"_long": -76.497161,
			"_route": null
		},
		{
			"_ID": 103,
			"_streetNumber": 201,
			"_street": "Highland Ave",
			"_unit": "",
			"_city": "Ithaca",
			"_state": "NY",
			"_zipcode": 14850,
			"_lat": 42.454732,
			"_long": -76.486233,
			"_route": null
		},
		{
			"_ID": 104,
			"_streetNumber": 17,
			"_street": "Jake St",
			"_unit": "",
			"_city": "Ithaca",
			"_state": "NY",
			"_zipcode": 14850,
			"_lat": 42.434184,
			"_long": -76.512467,
			"_route": null
		},
		{
			"_ID": 105,
			"_streetNumber": 712,
			"_street": "N Tioga St",
			"_unit": "",
			"_city": "Ithaca",
			"_state": "NY",
			"_zipcode": 14850,
			"_lat": 42.446147,
			"_long": -76.497161,
			"_route": null
		},
		{
			"_ID": 106,
			"_streetNumber": 208,
			"_street": "E State St",
			"_unit": "",
			"_city": "Ithaca",
			"_state": "NY",
			"_zipcode": 14850,
			"_lat": 42.439697,
			"_long": -76.495078,
			"_route": null
		},
		{
			"_ID": 107,
			"_streetNumber": 214,
			"_street": "Fayette St",
			"_unit": "",
			"_city": "Ithaca",
			"_state": "NY",
			"_zipcode": 14850,
			"_lat": 42.436764,
			"_long": -76.502565,
			"_route": null
		},
		{
			"_ID": 108,
			"_streetNumber": 327,
			"_street": "S Albany St",
			"_unit": "",
			"_city": "Ithaca",
			"_state": "NY",
			"_zipcode": 14850,
			"_lat": 42.435589,
			"_long": -76.501525,
			"_route": null
		},
		{
			"_ID": 109,
			"_streetNumber": 619,
			"_street": "W Court St",
			"_unit": "",
			"_city": "Ithaca",
			"_state": "NY",
			"_zipcode": 14850,
			"_lat": 42.44284,
			"_long": -76.500411,
			"_route": null
		},
		{
			"_ID": 110,
			"_streetNumber": 219,
			"_street": "W Spencer St",
			"_unit": "",
			"_city": "Ithaca",
			"_state": "NY",
			"_zipcode": 14850,
			"_lat": 42.433076,
			"_long": -76.500037,
			"_route": null
		},
		{
			"_ID": 111,
			"_streetNumber": 304,
			"_street": "Ithaca Rd",
			"_unit": "",
			"_city": "Ithaca",
			"_state": "NY",
			"_zipcode": 14850,
			"_lat": 42.438961,
			"_long": -76.479905,
			"_route": null
		},
		{
			"_ID": 112,
			"_streetNumber": 1005,
			"_street": "E State St",
			"_unit": "",
			"_city": "Ithaca",
			"_state": "NY",
			"_zipcode": 14850,
			"_lat": 42.439697,
			"_long": -76.495078,
			"_route": null
		},
		{
			"_ID": 113,
			"_streetNumber": 223,
			"_street": "Linn St",
			"_unit": "",
			"_city": "Ithaca",
			"_state": "NY",
			"_zipcode": 14850,
			"_lat": 42.447361,
			"_long": -76.494815,
			"_route": null
		},
		{
			"_ID": 114,
			"_streetNumber": 106,
			"_street": "Valentine Pl",
			"_unit": "",
			"_city": "Ithaca",
			"_state": "NY",
			"_zipcode": 14850,
			"_lat": 42.437474,
			"_long": -76.487564,
			"_route": null
		},
		{
			"_ID": 115,
			"_streetNumber": 696,
			"_street": "Chestnut St",
			"_unit": "",
			"_city": "Ithaca",
			"_state": "NY",
			"_zipcode": 14850,
			"_lat": 42.43849,
			"_long": -76.519216,
			"_route": null
		},
		{
			"_ID": 116,
			"_streetNumber": 203,
			"_street": "Eastwood Ave",
			"_unit": "",
			"_city": "Ithaca",
			"_state": "NY",
			"_zipcode": 14850,
			"_lat": 42.432771,
			"_long": -76.476126,
			"_route": null
		},
		{
			"_ID": 117,
			"_streetNumber": 314,
			"_street": "Turner Pl",
			"_unit": "",
			"_city": "Ithaca",
			"_state": "NY",
			"_zipcode": 14850,
			"_lat": 42.434941,
			"_long": -76.496703,
			"_route": null
		},
		{
			"_ID": 118,
			"_streetNumber": 532,
			"_street": "Spencer Rd",
			"_unit": "",
			"_city": "Ithaca",
			"_state": "NY",
			"_zipcode": 14850,
			"_lat": 42.425216,
			"_long": -76.509996,
			"_route": null
		},
		{
			"_ID": 119,
			"_streetNumber": 323,
			"_street": "Hook Pl",
			"_unit": "",
			"_city": "Ithaca",
			"_state": "NY",
			"_zipcode": 14850,
			"_lat": 42.489601,
			"_long": -76.486636,
			"_route": null
		},
		{
			"_ID": 120,
			"_streetNumber": 726,
			"_street": "University Ave",
			"_unit": "",
			"_city": "Ithaca",
			"_state": "NY",
			"_zipcode": 14850,
			"_lat": 42.451218,
			"_long": -76.48355,
			"_route": null
		},
		{
			"_ID": 121,
			"_streetNumber": 6,
			"_street": "Lodge Way",
			"_unit": "",
			"_city": "Ithaca",
			"_state": "NY",
			"_zipcode": 14850,
			"_lat": 42.457829,
			"_long": -76.48565,
			"_route": null
		},
		{
			"_ID": 122,
			"_streetNumber": 310,
			"_street": "Ithaca Rd",
			"_unit": "",
			"_city": "Ithaca",
			"_state": "NY",
			"_zipcode": 14850,
			"_lat": 42.438961,
			"_long": -76.479905,
			"_route": null
		},
		{
			"_ID": 123,
			"_streetNumber": 313,
			"_street": "Columbia St",
			"_unit": "",
			"_city": "Ithaca",
			"_state": "NY",
			"_zipcode": 14850,
			"_lat": 42.436032,
			"_long": -76.492841,
			"_route": null
		},
		{
			"_ID": 124,
			"_streetNumber": 717,
			"_street": "E Buffalo St",
			"_unit": "",
			"_city": "Ithaca",
			"_state": "NY",
			"_zipcode": 14850,
			"_lat": 42.44182,
			"_long": -76.489612,
			"_route": null
		},
		{
			"_ID": 125,
			"_streetNumber": 914,
			"_street": "E State St",
			"_unit": "",
			"_city": "Ithaca",
			"_state": "NY",
			"_zipcode": 14850,
			"_lat": 42.439697,
			"_long": -76.495078,
			"_route": null
		},
		{
			"_ID": 126,
			"_streetNumber": 507,
			"_street": "Willow Ave",
			"_unit": "",
			"_city": "Ithaca",
			"_state": "NY",
			"_zipcode": 14850,
			"_lat": 42.451451,
			"_long": -76.505149,
			"_route": null
		},
		{
			"_ID": 127,
			"_streetNumber": 513,
			"_street": "N Cayuga St",
			"_unit": "",
			"_city": "Ithaca",
			"_state": "NY",
			"_zipcode": 14850,
			"_lat": 42.440834,
			"_long": -76.498755,
			"_route": null
		},
		{
			"_ID": 128,
			"_streetNumber": 205,
			"_street": "Cobb St",
			"_unit": "",
			"_city": "Ithaca",
			"_state": "NY",
			"_zipcode": 14850,
			"_lat": 42.438918,
			"_long": -76.476443,
			"_route": null
		},
		{
			"_ID": 129,
			"_streetNumber": 610,
			"_street": "E Seneca St",
			"_unit": "",
			"_city": "Ithaca",
			"_state": "NY",
			"_zipcode": 14850,
			"_lat": 42.440764,
			"_long": -76.496301,
			"_route": null
		},
		{
			"_ID": 130,
			"_streetNumber": 401,
			"_street": "S Albany St",
			"_unit": "",
			"_city": "Ithaca",
			"_state": "NY",
			"_zipcode": 14850,
			"_lat": 42.435589,
			"_long": -76.501525,
			"_route": null
		},
		{
			"_ID": 131,
			"_streetNumber": 209,
			"_street": "Ridgedale Rd",
			"_unit": "",
			"_city": "Ithaca",
			"_state": "NY",
			"_zipcode": 14850,
			"_lat": 42.436745,
			"_long": -76.481206,
			"_route": null
		},
		{
			"_ID": 132,
			"_streetNumber": 214,
			"_street": "South Hill Ter",
			"_unit": "",
			"_city": "Ithaca",
			"_state": "NY",
			"_zipcode": 14850,
			"_lat": 42.43396,
			"_long": -76.49284,
			"_route": null
		},
		{
			"_ID": 133,
			"_streetNumber": 401,
			"_street": "W State St",
			"_unit": "",
			"_city": "Ithaca",
			"_state": "NY",
			"_zipcode": 14850,
			"_lat": 42.439256,
			"_long": -76.499593,
			"_route": null
		},
		{
			"_ID": 134,
			"_streetNumber": 118,
			"_street": "E Falls St",
			"_unit": "",
			"_city": "Ithaca",
			"_state": "NY",
			"_zipcode": 14850,
			"_lat": 42.452877,
			"_long": -76.497491,
			"_route": null
		},
		{
			"_ID": 135,
			"_streetNumber": 914,
			"_street": "Giles St",
			"_unit": "",
			"_city": "Ithaca",
			"_state": "NY",
			"_zipcode": 14850,
			"_lat": 42.432637,
			"_long": -76.484134,
			"_route": null
		},
		{
			"_ID": 136,
			"_streetNumber": 520,
			"_street": "Chestnut St",
			"_unit": "",
			"_city": "Ithaca",
			"_state": "NY",
			"_zipcode": 14850,
			"_lat": 42.43849,
			"_long": -76.519216,
			"_route": null
		},
		{
			"_ID": 137,
			"_streetNumber": 409,
			"_street": "S Plain St",
			"_unit": "",
			"_city": "Ithaca",
			"_state": "NY",
			"_zipcode": 14850,
			"_lat": 42.43552,
			"_long": -76.503736,
			"_route": null
		},
		{
			"_ID": 138,
			"_streetNumber": 329,
			"_street": "Mitchell St",
			"_unit": "",
			"_city": "Ithaca",
			"_state": "NY",
			"_zipcode": 14850,
			"_lat": 42.437832,
			"_long": -76.477551,
			"_route": null
		},
		{
			"_ID": 139,
			"_streetNumber": 702,
			"_street": "Cliff St",
			"_unit": "",
			"_city": "Ithaca",
			"_state": "NY",
			"_zipcode": 14850,
			"_lat": 42.44762,
			"_long": -76.516761,
			"_route": null
		},
		{
			"_ID": 140,
			"_streetNumber": 420,
			"_street": "Hillview Pl",
			"_unit": "",
			"_city": "Ithaca",
			"_state": "NY",
			"_zipcode": 14850,
			"_lat": 42.434877,
			"_long": -76.49471,
			"_route": null
		},
		{
			"_ID": 141,
			"_streetNumber": 137,
			"_street": "Crescent Pl",
			"_unit": "",
			"_city": "Ithaca",
			"_state": "NY",
			"_zipcode": 14850,
			"_lat": 42.432825,
			"_long": -76.489743,
			"_route": null
		},
		{
			"_ID": 142,
			"_streetNumber": 213,
			"_street": "Fair St",
			"_unit": "",
			"_city": "Ithaca",
			"_state": "NY",
			"_zipcode": 14850,
			"_lat": 42.433515,
			"_long": -76.506087,
			"_route": null
		},
		{
			"_ID": 143,
			"_streetNumber": 109,
			"_street": "Oxford Pl",
			"_unit": "",
			"_city": "Ithaca",
			"_state": "NY",
			"_zipcode": 14850,
			"_lat": 42.489601,
			"_long": -76.486636,
			"_route": null
		},
		{
			"_ID": 144,
			"_streetNumber": 935,
			"_street": "Cliff St",
			"_unit": "",
			"_city": "Ithaca",
			"_state": "NY",
			"_zipcode": 14850,
			"_lat": 42.44762,
			"_long": -76.516761,
			"_route": null
		},
		{
			"_ID": 145,
			"_streetNumber": 401,
			"_street": "W State St",
			"_unit": "",
			"_city": "Ithaca",
			"_state": "NY",
			"_zipcode": 14850,
			"_lat": 42.439256,
			"_long": -76.499593,
			"_route": null
		},
		{
			"_ID": 146,
			"_streetNumber": 308,
			"_street": "S Plain St",
			"_unit": "",
			"_city": "Ithaca",
			"_state": "NY",
			"_zipcode": 14850,
			"_lat": 42.43552,
			"_long": -76.503736,
			"_route": null
		},
		{
			"_ID": 147,
			"_streetNumber": 324,
			"_street": "Brookfield Rd",
			"_unit": "",
			"_city": "Ithaca",
			"_state": "NY",
			"_zipcode": 14850,
			"_lat": 42.455297,
			"_long": -76.523986,
			"_route": null
		},
		{
			"_ID": 148,
			"_streetNumber": 113,
			"_street": "Ho Plz",
			"_unit": "",
			"_city": "Ithaca",
			"_state": "NY",
			"_zipcode": 14853,
			"_lat": 42.446402,
			"_long": -76.48507,
			"_route": null
		},
		{
			"_ID": 149,
			"_streetNumber": 1102,
			"_street": "E State St",
			"_unit": "",
			"_city": "Ithaca",
			"_state": "NY",
			"_zipcode": 14850,
			"_lat": 42.439697,
			"_long": -76.495078,
			"_route": null
		},
		{
			"_ID": 150,
			"_streetNumber": 106,
			"_street": "E Court St",
			"_unit": "",
			"_city": "Ithaca",
			"_state": "NY",
			"_zipcode": 14850,
			"_lat": 42.442883,
			"_long": -76.495028,
			"_route": null
		},
		{
			"_ID": 151,
			"_streetNumber": 318,
			"_street": "S Albany St",
			"_unit": "",
			"_city": "Ithaca",
			"_state": "NY",
			"_zipcode": 14850,
			"_lat": 42.435589,
			"_long": -76.501525,
			"_route": null
		},
		{
			"_ID": 152,
			"_streetNumber": 501,
			"_street": "Willow Ave",
			"_unit": "",
			"_city": "Ithaca",
			"_state": "NY",
			"_zipcode": 14850,
			"_lat": 42.451451,
			"_long": -76.505149,
			"_route": null
		},
		{
			"_ID": 153,
			"_streetNumber": 109,
			"_street": "Worth St",
			"_unit": "",
			"_city": "Ithaca",
			"_state": "NY",
			"_zipcode": 14850,
			"_lat": 42.438584,
			"_long": -76.478181,
			"_route": null
		},
		{
			"_ID": 154,
			"_streetNumber": 213,
			"_street": "Grandview Ave",
			"_unit": "",
			"_city": "Ithaca",
			"_state": "NY",
			"_zipcode": 14850,
			"_lat": 42.431367,
			"_long": -76.494364,
			"_route": null
		},
		{
			"_ID": 155,
			"_streetNumber": 221,
			"_street": "S Geneva St",
			"_unit": "",
			"_city": "Ithaca",
			"_state": "NY",
			"_zipcode": 14850,
			"_lat": 42.436814,
			"_long": -76.500633,
			"_route": null
		},
		{
			"_ID": 156,
			"_streetNumber": 706,
			"_street": "S Plain St",
			"_unit": "",
			"_city": "Ithaca",
			"_state": "NY",
			"_zipcode": 14850,
			"_lat": 42.43552,
			"_long": -76.503736,
			"_route": null
		},
		{
			"_ID": 157,
			"_streetNumber": 405,
			"_street": "S Aurora St",
			"_unit": "",
			"_city": "Ithaca",
			"_state": "NY",
			"_zipcode": 14850,
			"_lat": 42.438972,
			"_long": -76.495525,
			"_route": null
		},
		{
			"_ID": 158,
			"_streetNumber": 111,
			"_street": "Orchard Pl",
			"_unit": "",
			"_city": "Ithaca",
			"_state": "NY",
			"_zipcode": 14850,
			"_lat": 42.489601,
			"_long": -76.486636,
			"_route": null
		},
		{
			"_ID": 159,
			"_streetNumber": 329,
			"_street": "Cascadilla St",
			"_unit": "",
			"_city": "Ithaca",
			"_state": "NY",
			"_zipcode": 14850,
			"_lat": 42.444557,
			"_long": -76.508328,
			"_route": null
		},
		{
			"_ID": 160,
			"_streetNumber": 802,
			"_street": "S Plain St",
			"_unit": "",
			"_city": "Ithaca",
			"_state": "NY",
			"_zipcode": 14850,
			"_lat": 42.43552,
			"_long": -76.503736,
			"_route": null
		},
		{
			"_ID": 161,
			"_streetNumber": 120,
			"_street": "W State St",
			"_unit": "",
			"_city": "Ithaca",
			"_state": "NY",
			"_zipcode": 14850,
			"_lat": 42.439256,
			"_long": -76.499593,
			"_route": null
		},
		{
			"_ID": 162,
			"_streetNumber": 325,
			"_street": "Pleasant St",
			"_unit": "",
			"_city": "Ithaca",
			"_state": "NY",
			"_zipcode": 14850,
			"_lat": 42.436685,
			"_long": -76.494524,
			"_route": null
		},
		{
			"_ID": 163,
			"_streetNumber": 30,
			"_street": "Jake St",
			"_unit": "",
			"_city": "Ithaca",
			"_state": "NY",
			"_zipcode": 14850,
			"_lat": 42.434184,
			"_long": -76.512467,
			"_route": null
		},
		{
			"_ID": 164,
			"_streetNumber": 112,
			"_street": "Sears St",
			"_unit": "",
			"_city": "Ithaca",
			"_state": "NY",
			"_zipcode": 14850,
			"_lat": 42.444162,
			"_long": -76.498121,
			"_route": null
		},
		{
			"_ID": 165,
			"_streetNumber": 320,
			"_street": "Center St",
			"_unit": "",
			"_city": "Ithaca",
			"_state": "NY",
			"_zipcode": 14850,
			"_lat": 42.435762,
			"_long": -76.503465,
			"_route": null
		},
		{
			"_ID": 166,
			"_streetNumber": 709,
			"_street": "Hancock St",
			"_unit": "",
			"_city": "Ithaca",
			"_state": "NY",
			"_zipcode": 14850,
			"_lat": 42.44537,
			"_long": -76.508084,
			"_route": null
		},
		{
			"_ID": 167,
			"_streetNumber": 107,
			"_street": "E York St",
			"_unit": "",
			"_city": "Ithaca",
			"_state": "NY",
			"_zipcode": 14850,
			"_lat": 42.453444,
			"_long": -76.499683,
			"_route": null
		},
		{
			"_ID": 168,
			"_streetNumber": 202,
			"_street": "Bryant Ave",
			"_unit": "",
			"_city": "Ithaca",
			"_state": "NY",
			"_zipcode": 14850,
			"_lat": 42.440019,
			"_long": -76.482435,
			"_route": null
		},
		{
			"_ID": 169,
			"_streetNumber": 208,
			"_street": "Dryden Rd",
			"_unit": "",
			"_city": "Ithaca",
			"_state": "NY",
			"_zipcode": 14850,
			"_lat": 42.441594,
			"_long": -76.486613,
			"_route": null
		},
		{
			"_ID": 170,
			"_streetNumber": 826,
			"_street": "N Aurora St",
			"_unit": "",
			"_city": "Ithaca",
			"_state": "NY",
			"_zipcode": 14850,
			"_lat": 42.440243,
			"_long": -76.495809,
			"_route": null
		},
		{
			"_ID": 171,
			"_streetNumber": 403,
			"_street": "Haller Blvd",
			"_unit": "",
			"_city": "Ithaca",
			"_state": "NY",
			"_zipcode": 14850,
			"_lat": 42.455303,
			"_long": -76.517426,
			"_route": null
		},
		{
			"_ID": 172,
			"_streetNumber": 614,
			"_street": "Chestnut St",
			"_unit": "",
			"_city": "Ithaca",
			"_state": "NY",
			"_zipcode": 14850,
			"_lat": 42.43849,
			"_long": -76.519216,
			"_route": null
		},
		{
			"_ID": 173,
			"_streetNumber": 40,
			"_street": "Abbott Ln",
			"_unit": "",
			"_city": "Ithaca",
			"_state": "NY",
			"_zipcode": 14850,
			"_lat": 42.434708,
			"_long": -76.522194,
			"_route": null
		},
		{
			"_ID": 174,
			"_streetNumber": 210,
			"_street": "Willard Way Loop",
			"_unit": "",
			"_city": "Ithaca",
			"_state": "NY",
			"_zipcode": 14850,
			"_lat": 42.450105,
			"_long": -76.492099,
			"_route": null
		},
		{
			"_ID": 175,
			"_streetNumber": 140,
			"_street": "Giles St",
			"_unit": "",
			"_city": "Ithaca",
			"_state": "NY",
			"_zipcode": 14850,
			"_lat": 42.432637,
			"_long": -76.484134,
			"_route": null
		},
		{
			"_ID": 176,
			"_streetNumber": 115,
			"_street": "Terrace Pl",
			"_unit": "",
			"_city": "Ithaca",
			"_state": "NY",
			"_zipcode": 14850,
			"_lat": 42.439383,
			"_long": -76.47282,
			"_route": null
		},
		{
			"_ID": 177,
			"_streetNumber": 402,
			"_street": "W Seneca St",
			"_unit": "",
			"_city": "Ithaca",
			"_state": "NY",
			"_zipcode": 14850,
			"_lat": 42.440002,
			"_long": -76.507591,
			"_route": null
		},
		{
			"_ID": 178,
			"_streetNumber": 920,
			"_street": "N Aurora St",
			"_unit": "",
			"_city": "Ithaca",
			"_state": "NY",
			"_zipcode": 14850,
			"_lat": 42.440243,
			"_long": -76.495809,
			"_route": null
		},
		{
			"_ID": 179,
			"_streetNumber": 131,
			"_street": "E Green St",
			"_unit": "",
			"_city": "Ithaca",
			"_state": "NY",
			"_zipcode": 14850,
			"_lat": 42.438441,
			"_long": -76.497346,
			"_route": null
		},
		{
			"_ID": 180,
			"_streetNumber": 139,
			"_street": "Chestnut St",
			"_unit": "",
			"_city": "Ithaca",
			"_state": "NY",
			"_zipcode": 14850,
			"_lat": 42.43849,
			"_long": -76.519216,
			"_route": null
		}
	],
	"num_canvassers": 1,
	"estimated_visit_time": 10,
	"workday_limit": 360,
	"avg_travel_speed": 804
}