{
	"locations": [
		{
			"_ID": 13,
			"_streetNumber": 100,
			"_street": "Nicolls Rd",
			"_unit": "0",
			"_city": "Stony Brook",
			"_state": "NY",
			"_zipcode": 11794,
			"_lat": 40.912376,
			"_long": -73.123389,
			"_route": null
		},
		{
			"_ID": 13,
			"_streetNumber": 100,
			"_street": "Nicolls Rd",
			"_unit": "0",
			"_city": "Stony Brook",
			"_state": "NY",
			"_zipcode": 11794,
			"_lat": 40.912376,
			"_long": -73.123389,
			"_route": null
		},
		{
			"_ID": 14,
			"_streetNumber": 1,
			"_street": "Education Dr",
			"_unit": "0",
			"_city": "Garden City",
			"_state": "NY",
			"_zipcode": 11530,
			"_lat": 40.730794,
			"_long": -73.591287,
			"_route": null
		},
		{
			"_ID": 15,
			"_streetNumber": 1000,
			"_street": "Hempstead Turnpike",
			"_unit": "0",
			"_city": "Hempstead",
			"_state": "NY",
			"_zipcode": 11549,
			"_lat": 40.716792,
			"_long": -73.599404,
			"_route": null
		},
		{
			"_ID": 16,
			"_streetNumber": 77,
			"_street": "Massachusetts Ave",
			"_unit": "0",
			"_city": "Cambridge",
			"_state": "MA",
			"_zipcode": 2139,
			"_lat": 42.360091,
			"_long": -71.09416,
			"_route": null
		},
		{
			"_ID": 17,
			"_streetNumber": 1,
			"_street": "South Ave",
			"_unit": "0",
			"_city": "Garden City",
			"_state": "NY",
			"_zipcode": 11530,
			"_lat": 40.720213,
			"_long": -73.652265,
			"_route": null
		},
		{
			"_ID": 18,
			"_streetNumber": 188,
			"_street": "Merritts Rd",
			"_unit": "0",
			"_city": "Farmingdale",
			"_state": "NY",
			"_zipcode": 11735,
			"_lat": 40.724077,
			"_long": -73.459132,
			"_route": null
		},
		{
			"_ID": 19,
			"_streetNumber": 234,
			"_street": "Main St",
			"_unit": "0",
			"_city": "Farmingdale",
			"_state": "NY",
			"_zipcode": 11735,
			"_lat": 40.722987,
			"_long": -73.442116,
			"_route": null
		},
		{
			"_ID": 20,
			"_streetNumber": 202,
			"_street": "Airport Plaza Blvd",
			"_unit": "0",
			"_city": "Farmingdale",
			"_state": "NY",
			"_zipcode": 11735,
			"_lat": 40.738169,
			"_long": -73.418006,
			"_route": null
		},
		{
			"_ID": 21,
			"_streetNumber": 2245,
			"_street": "Broadhollow Rd",
			"_unit": "0",
			"_city": "Farmingdale",
			"_state": "NY",
			"_zipcode": 11735,
			"_lat": 40.752614,
			"_long": -73.419844,
			"_route": null
		},
		{
			"_ID": 22,
			"_streetNumber": 5316,
			"_street": "Nesconset highway",
			"_unit": "0",
			"_city": "Port Jefferson Station",
			"_state": "NY",
			"_zipcode": 11776,
			"_lat": 40.921377,
			"_long": -73.05201,
			"_route": null
		},
		{
			"_ID": 23,
			"_streetNumber": 75,
			"_street": "Merritts Rd",
			"_unit": "0",
			"_city": "Farmingdale",
			"_state": "NY",
			"_zipcode": 11735,
			"_lat": 40.724077,
			"_long": -73.459132,
			"_route": null
		},
		{
			"_ID": 24,
			"_streetNumber": 213,
			"_street": "Broadway Mall",
			"_unit": "0",
			"_city": "Hicksville",
			"_state": "NY",
			"_zipcode": 11801,
			"_lat": 40.773099,
			"_long": -73.531413,
			"_route": null
		}
	],
	"num_canvassers": 1,
	"estimated_visit_time": 10,
	"workday_limit": 360,
	"avg_travel_speed": 804
}