{
	"locations": [
		{
			"_ID": 1,
			"_streetNumber": 100,
			"_street": "Nicolls Rd",
			"_unit": "0",
			"_city": "Stony Brook",
			"_state": "NY",
			"_zipcode": 11794,
			"_lat": 40.912376,
			"_long": -73.123389,
			"_route": null
		},
		{
			"_ID": 1,
			"_streetNumber": 100,
			"_street": "Nicolls Rd",
			"_unit": "0",
			"_city": "Stony Brook",
			"_state": "NY",
			"_zipcode": 11794,
			"_lat": 40.912376,
			"_long": -73.123389,
			"_route": null
		},
		{
			"_ID": 2,
			"_streetNumber": 1,
			"_street": "Education Dr",
			"_unit": "0",
			"_city": "Garden City",
			"_state": "NY",
			"_zipcode": 11530,
			"_lat": 40.73094,
			"_long": -73.591949,
			"_route": null
		},
		{
			"_ID": 3,
			"_streetNumber": 1000,
			"_street": "Hempstead Turnpike",
			"_unit": "0",
			"_city": "Hempstead",
			"_state": "NY",
			"_zipcode": 11549,
			"_lat": 40.714999,
			"_long": -73.601882,
			"_route": null
		},
		{
			"_ID": 4,
			"_streetNumber": 1,
			"_street": "South Ave",
			"_unit": "0",
			"_city": "Garden City",
			"_state": "NY",
			"_zipcode": 11530,
			"_lat": 40.722797,
			"_long": -73.654685,
			"_route": null
		},
		{
			"_ID": 5,
			"_streetNumber": 188,
			"_street": "Merritts Rd",
			"_unit": "0",
			"_city": "Farmingdale",
			"_state": "NY",
			"_zipcode": 11735,
			"_lat": 40.728773,
			"_long": -73.459117,
			"_route": null
		},
		{
			"_ID": 6,
			"_streetNumber": 234,
			"_street": "Main St",
			"_unit": "0",
			"_city": "Farmingdale",
			"_state": "NY",
			"_zipcode": 11735,
			"_lat": 40.731148,
			"_long": -73.44558,
			"_route": null
		},
		{
			"_ID": 7,
			"_streetNumber": 202,
			"_street": "Airport Plaza Blvd",
			"_unit": "0",
			"_city": "Farmingdale",
			"_state": "NY",
			"_zipcode": 11735,
			"_lat": 40.738247,
			"_long": -73.416429,
			"_route": null
		},
		{
			"_ID": 8,
			"_streetNumber": 2245,
			"_street": "Broadhollow Rd",
			"_unit": "0",
			"_city": "Farmingdale",
			"_state": "NY",
			"_zipcode": 11735,
			"_lat": 40.737772,
			"_long": -73.423335,
			"_route": null
		},
		{
			"_ID": 9,
			"_streetNumber": 5316,
			"_street": "Nesconset highway",
			"_unit": "0",
			"_city": "Port Jefferson Station",
			"_state": "NY",
			"_zipcode": 11776,
			"_lat": 40.916591,
			"_long": -73.054933,
			"_route": null
		}
	],
	"num_canvassers": 1,
	"estimated_visit_time": 5,
	"workday_limit": 360,
	"avg_travel_speed": 804
}